{
  "type": "FeatureCollection",
  "features": [
{"type":"Feature","properties":{"name":"St. John's","region":"Avalon"},"geometry":{"type":"Point","coordinates":[-52.7126,47.5615]}},
{"type":"Feature","properties":{"name":"Mount Pearl","region":"Avalon"},"geometry":{"type":"Point","coordinates":[-52.7811,47.5181]}},
{"type":"Feature","properties":{"name":"Paradise","region":"Avalon"},"geometry":{"type":"Point","coordinates":[-52.8942,47.5338]}},
{"type":"Feature","properties":{"name":"Conception Bay South","region":"Avalon"},"geometry":{"type":"Point","coordinates":[-52.9862,47.5061]}},
{"type":"Feature","properties":{"name":"Torbay","region":"Avalon"},"geometry":{"type":"Point","coordinates":[-52.7315,47.6592]}},
{"type":"Feature","properties":{"name":"Pouch Cove","region":"Avalon"},"geometry":{"type":"Point","coordinates":[-52.7661,47.7712]}},
{"type":"Feature","properties":{"name":"Flatrock","region":"Avalon"},"geometry":{"type":"Point","coordinates":[-52.7112,47.7015]}},
{"type":"Feature","properties":{"name":"Bauline","region":"Avalon"},"geometry":{"type":"Point","coordinates":[-52.8162,47.6914]}},
{"type":"Feature","properties":{"name":"Portugal Cove-St. Philip's","region":"Avalon"},"geometry":{"type":"Point","coordinates":[-52.8582,47.6331]}},
{"type":"Feature","properties":{"name":"Logy Bay-Middle Cove-Outer Cove","region":"Avalon"},"geometry":{"type":"Point","coordinates":[-52.6662,47.6161]}},
{"type":"Feature","properties":{"name":"Petty Harbour-Maddox Cove","region":"Avalon"},"geometry":{"type":"Point","coordinates":[-52.7081,47.4612]}},
{"type":"Feature","properties":{"name":"Bay Bulls","region":"Irish Loop"},"geometry":{"type":"Point","coordinates":[-52.8125,47.3174]}},
{"type":"Feature","properties":{"name":"Witless Bay","region":"Irish Loop"},"geometry":{"type":"Point","coordinates":[-52.8172,47.2831]}},
{"type":"Feature","properties":{"name":"Mobile","region":"Irish Loop"},"geometry":{"type":"Point","coordinates":[-52.8331,47.2514]}},
{"type":"Feature","properties":{"name":"Tors Cove","region":"Irish Loop"},"geometry":{"type":"Point","coordinates":[-52.8502,47.2161]}},
{"type":"Feature","properties":{"name":"La Manche","region":"Irish Loop"},"geometry":{"type":"Point","coordinates":[-52.8831,47.1662]}},
{"type":"Feature","properties":{"name":"Briguds South","region":"Irish Loop"},"geometry":{"type":"Point","coordinates":[-52.8832,47.1161]}},
{"type":"Feature","properties":{"name":"Admiral's Cove","region":"Irish Loop"},"geometry":{"type":"Point","coordinates":[-52.9011,47.0831]}},
{"type":"Feature","properties":{"name":"Cape Broyle","region":"Irish Loop"},"geometry":{"type":"Point","coordinates":[-52.9331,47.0832]}},
{"type":"Feature","properties":{"name":"Calvert","region":"Irish Loop"},"geometry":{"type":"Point","coordinates":[-52.9161,47.0512]}},
{"type":"Feature","properties":{"name":"Ferryland","region":"Irish Loop"},"geometry":{"type":"Point","coordinates":[-52.8851,47.0224]}},
{"type":"Feature","properties":{"name":"Aquaforte","region":"Irish Loop"},"geometry":{"type":"Point","coordinates":[-52.9662,47.0014]}},
{"type":"Feature","properties":{"name":"Fermeuse","region":"Irish Loop"},"geometry":{"type":"Point","coordinates":[-52.9512,46.9662]}},
{"type":"Feature","properties":{"name":"Kingman's Cove","region":"Irish Loop"},"geometry":{"type":"Point","coordinates":[-52.9411,46.9582]}},
{"type":"Feature","properties":{"name":"Renews","region":"Irish Loop"},"geometry":{"type":"Point","coordinates":[-52.9421,46.9271]}},
{"type":"Feature","properties":{"name":"Cappahayden","region":"Irish Loop"},"geometry":{"type":"Point","coordinates":[-52.9551,46.8402]}},
{"type":"Feature","properties":{"name":"Trepassey","region":"Irish Loop"},"geometry":{"type":"Point","coordinates":[-53.3652,46.7371]}},
{"type":"Feature","properties":{"name":"Biscay Bay","region":"Irish Loop"},"geometry":{"type":"Point","coordinates":[-53.2831,46.7662]}},
{"type":"Feature","properties":{"name":"Portugal Cove South","region":"Irish Loop"},"geometry":{"type":"Point","coordinates":[-53.2512,46.7011]}},
{"type":"Feature","properties":{"name":"St. Shotts","region":"Irish Loop"},"geometry":{"type":"Point","coordinates":[-53.5831,46.6332]}},
{"type":"Feature","properties":{"name":"St. Vincent's","region":"Irish Loop"},"geometry":{"type":"Point","coordinates":[-53.6502,46.7834]}},
{"type":"Feature","properties":{"name":"St. Stephen's","region":"Irish Loop"},"geometry":{"type":"Point","coordinates":[-53.6331,46.7512]}},
{"type":"Feature","properties":{"name":"Peter's River","region":"Irish Loop"},"geometry":{"type":"Point","coordinates":[-53.6162,46.7331]}},
{"type":"Feature","properties":{"name":"Gaskiers","region":"Irish Loop"},"geometry":{"type":"Point","coordinates":[-53.5832,46.8512]}},
{"type":"Feature","properties":{"name":"St. Mary's","region":"Irish Loop"},"geometry":{"type":"Point","coordinates":[-53.5831,46.9172]}},
{"type":"Feature","properties":{"name":"Riverhead","region":"Irish Loop"},"geometry":{"type":"Point","coordinates":[-53.5162,46.9661]}},
{"type":"Feature","properties":{"name":"Mall Bay","region":"Irish Loop"},"geometry":{"type":"Point","coordinates":[-53.5662,46.9831]}},
{"type":"Feature","properties":{"name":"Mount Carmel","region":"St. Mary's Bay"},"geometry":{"type":"Point","coordinates":[-53.5011,47.1331]}},
{"type":"Feature","properties":{"name":"St. Joseph's","region":"St. Mary's Bay"},"geometry":{"type":"Point","coordinates":[-53.5012,47.1162]}},
{"type":"Feature","properties":{"name":"Admiral's Beach","region":"St. Mary's Bay"},"geometry":{"type":"Point","coordinates":[-53.6511,47.0011]}},
{"type":"Feature","properties":{"name":"St. Bride's","region":"Cape Shore"},"geometry":{"type":"Point","coordinates":[-54.1751,46.9272]}},
{"type":"Feature","properties":{"name":"Cuslett","region":"Cape Shore"},"geometry":{"type":"Point","coordinates":[-54.1512,46.9662]}},
{"type":"Feature","properties":{"name":"St. Vincent's","region":"Cape Shore"},"geometry":{"type":"Point","coordinates":[-53.6502,46.7834]}},
{"type":"Feature","properties":{"name":"Point Lance","region":"Cape Shore"},"geometry":{"type":"Point","coordinates":[-54.0831,46.8162]}},
{"type":"Feature","properties":{"name":"Branch","region":"Cape Shore"},"geometry":{"type":"Point","coordinates":[-53.9511,46.8832]}},
{"type":"Feature","properties":{"name":"Placentia","region":"Avalon West"},"geometry":{"type":"Point","coordinates":[-53.9612,47.2391]}},
{"type":"Feature","properties":{"name":"Holyrood","region":"Conception Bay"},"geometry":{"type":"Point","coordinates":[-53.1251,47.3872]}},
{"type":"Feature","properties":{"name":"Harbour Main","region":"Conception Bay"},"geometry":{"type":"Point","coordinates":[-53.1552,47.4331]}},
{"type":"Feature","properties":{"name":"Avondale","region":"Conception Bay"},"geometry":{"type":"Point","coordinates":[-53.1892,47.4222]}},
{"type":"Feature","properties":{"name":"Conception Harbour","region":"Conception Bay"},"geometry":{"type":"Point","coordinates":[-53.2161,47.4334]}},
{"type":"Feature","properties":{"name":"Colliers","region":"Conception Bay"},"geometry":{"type":"Point","coordinates":[-53.2162,47.4661]}},
{"type":"Feature","properties":{"name":"Brigus","region":"Baccalieu Trail"},"geometry":{"type":"Point","coordinates":[-53.2872,47.5361]}},
{"type":"Feature","properties":{"name":"Cupids","region":"Baccalieu Trail"},"geometry":{"type":"Point","coordinates":[-53.2321,47.5452]}},
{"type":"Feature","properties":{"name":"South River","region":"Baccalieu Trail"},"geometry":{"type":"Point","coordinates":[-53.2662,47.5512]}},
{"type":"Feature","properties":{"name":"Clarke's Beach","region":"Baccalieu Trail"},"geometry":{"type":"Point","coordinates":[-53.2831,47.5514]}},
{"type":"Feature","properties":{"name":"Port de Grave","region":"Baccalieu Trail"},"geometry":{"type":"Point","coordinates":[-53.1952,47.5831]}},
{"type":"Feature","properties":{"name":"Bay Roberts","region":"Baccalieu Trail"},"geometry":{"type":"Point","coordinates":[-53.2642,47.5951]}},
{"type":"Feature","properties":{"name":"Spaniard's Bay","region":"Baccalieu Trail"},"geometry":{"type":"Point","coordinates":[-53.2832,47.6162]}},
{"type":"Feature","properties":{"name":"Tilton","region":"Baccalieu Trail"},"geometry":{"type":"Point","coordinates":[-53.3331,47.6331]}},
{"type":"Feature","properties":{"name":"Upper Island Cove","region":"Baccalieu Trail"},"geometry":{"type":"Point","coordinates":[-53.2161,47.6512]}},
{"type":"Feature","properties":{"name":"Harbour Grace","region":"Baccalieu Trail"},"geometry":{"type":"Point","coordinates":[-53.2131,47.6952]}},
{"type":"Feature","properties":{"name":"Carbonear","region":"Baccalieu Trail"},"geometry":{"type":"Point","coordinates":[-53.2291,47.7371]}},
{"type":"Feature","properties":{"name":"Victoria","region":"Baccalieu Trail"},"geometry":{"type":"Point","coordinates":[-53.2412,47.7661]}},
{"type":"Feature","properties":{"name":"Salmon Cove","region":"Baccalieu Trail"},"geometry":{"type":"Point","coordinates":[-53.1661,47.7832]}},
{"type":"Feature","properties":{"name":"Broad Cove","region":"Baccalieu Trail"},"geometry":{"type":"Point","coordinates":[-53.0831,47.8331]}},
{"type":"Feature","properties":{"name":"Western Bay","region":"Baccalieu Trail"},"geometry":{"type":"Point","coordinates":[-53.0832,47.8832]}},
{"type":"Feature","properties":{"name":"Northern Bay","region":"Baccalieu Trail"},"geometry":{"type":"Point","coordinates":[-53.0662,47.9331]}},
{"type":"Feature","properties":{"name":"Old Perlican","region":"Baccalieu Trail"},"geometry":{"type":"Point","coordinates":[-53.0112,48.0832]}},
{"type":"Feature","properties":{"name":"Bay de Verde","region":"Baccalieu Trail"},"geometry":{"type":"Point","coordinates":[-52.8831,48.1332]}},
{"type":"Feature","properties":{"name":"Grates Cove","region":"Baccalieu Trail"},"geometry":{"type":"Point","coordinates":[-52.9332,48.1661]}},
{"type":"Feature","properties":{"name":"Winterton","region":"Trinity Bay South"},"geometry":{"type":"Point","coordinates":[-53.3331,47.9662]}},
{"type":"Feature","properties":{"name":"Heart's Content","region":"Trinity Bay South"},"geometry":{"type":"Point","coordinates":[-53.3662,47.8671]}},
{"type":"Feature","properties":{"name":"Heart's Delight-Islington","region":"Trinity Bay South"},"geometry":{"type":"Point","coordinates":[-53.4661,47.7662]}},
{"type":"Feature","properties":{"name":"Green's Harbour","region":"Trinity Bay South"},"geometry":{"type":"Point","coordinates":[-53.5162,47.6331]}},
{"type":"Feature","properties":{"name":"Whiteway","region":"Trinity Bay South"},"geometry":{"type":"Point","coordinates":[-53.4831,47.6832]}},
{"type":"Feature","properties":{"name":"Dildo","region":"Trinity Bay South"},"geometry":{"type":"Point","coordinates":[-53.5512,47.5671]}},
{"type":"Feature","properties":{"name":"Whitbourne","region":"Isthmus"},"geometry":{"type":"Point","coordinates":[-53.5892,47.5142]}},
{"type":"Feature","properties":{"name":"Chapel Arm","region":"Isthmus"},"geometry":{"type":"Point","coordinates":[-53.6831,47.5161]}},
{"type":"Feature","properties":{"name":"Norman's Cove-Long Cove","region":"Isthmus"},"geometry":{"type":"Point","coordinates":[-53.6662,47.5512]}},
{"type":"Feature","properties":{"name":"Come By Chance","region":"Isthmus"},"geometry":{"type":"Point","coordinates":[-54.0162,47.8331]}},
{"type":"Feature","properties":{"name":"Arnold's Cove","region":"Isthmus"},"geometry":{"type":"Point","coordinates":[-54.0012,47.7552]}},
{"type":"Feature","properties": {"name": "Argentia", "region": "Avalon West"}, "geometry": {"type": "Point", "coordinates": [-53.9882, 47.3001]}},
  {"type":"Feature","properties":{"name":"Goobies","region":"Burin-Neck"},"geometry":{"type":"Point","coordinates":[-54.0331,47.9332]}},
{"type":"Feature","properties":{"name":"Swift Current","region":"Burin-Neck"},"geometry":{"type":"Point","coordinates":[-54.1831,47.8831]}},
{"type":"Feature","properties":{"name":"Garden Cove","region":"Burin-Neck"},"geometry":{"type":"Point","coordinates":[-54.0832,47.8512]}},
{"type":"Feature","properties":{"name":"North Harbour","region":"Burin-Neck"},"geometry":{"type":"Point","coordinates":[-54.0662,47.8511]}},
{"type":"Feature","properties":{"name":"Terrenceville","region":"Fortune Bay East"},"geometry":{"type":"Point","coordinates":[-54.7331,47.9172]}},
{"type":"Feature","properties":{"name":"Grand le Pierre","region":"Fortune Bay East"},"geometry":{"type":"Point","coordinates":[-54.8331,47.8831]}},
{"type":"Feature","properties":{"name":"English Harbour East","region":"Fortune Bay East"},"geometry":{"type":"Point","coordinates":[-54.8832,47.8512]}},
{"type":"Feature","properties":{"name":"Bay L'Argent","region":"Fortune Bay East"},"geometry":{"type":"Point","coordinates":[-54.8831,47.5512]}},
{"type":"Feature","properties":{"name":"St. Bernard's-Jacques Fontaine","region":"Fortune Bay East"},"geometry":{"type":"Point","coordinates":[-54.9162,47.5331]}},
{"type":"Feature","properties":{"name":"Harbour Mille","region":"Fortune Bay East"},"geometry":{"type":"Point","coordinates":[-54.8162,47.5831]}},
{"type":"Feature","properties":{"name":"Little Harbour East","region":"Fortune Bay East"},"geometry":{"type":"Point","coordinates":[-54.7831,47.6012]}},
{"type":"Feature","properties":{"name":"Monkstown","region":"Placentia West"},"geometry":{"type":"Point","coordinates":[-54.4331,47.5661]}},
{"type":"Feature","properties":{"name":"Boat Harbour","region":"Placentia West"},"geometry":{"type":"Point","coordinates":[-54.8331,47.4162]}},
{"type":"Feature","properties":{"name":"Petit Forte","region":"Placentia West"},"geometry":{"type":"Point","coordinates":[-54.6662,47.3831]}},
{"type":"Feature","properties":{"name":"South East Bight","region":"Placentia West (Ferry)"},"geometry":{"type":"Point","coordinates":[-54.5831,47.4162]}},
{"type":"Feature","properties":{"name":"Parker's Cove","region":"Placentia West"},"geometry":{"type":"Point","coordinates":[-54.8512,47.4011]}},
{"type":"Feature","properties":{"name":"Baine Harbour","region":"Placentia West"},"geometry":{"type":"Point","coordinates":[-54.9161,47.3662]}},
{"type":"Feature","properties":{"name":"Rushoon","region":"Placentia West"},"geometry":{"type":"Point","coordinates":[-54.9011,47.3512]}},
{"type":"Feature","properties":{"name":"Red Harbour","region":"Placentia West"},"geometry":{"type":"Point","coordinates":[-54.9831,47.3012]}},
{"type":"Feature","properties":{"name":"Jean de Baie","region":"Marystown Area"},"geometry":{"type":"Point","coordinates":[-55.0162,47.2161]}},
{"type":"Feature","properties":{"name":"Spanish Room","region":"Marystown Area"},"geometry":{"type":"Point","coordinates":[-55.0512,47.1831]}},
{"type":"Feature","properties":{"name":"Rock Harbour","region":"Marystown Area"},"geometry":{"type":"Point","coordinates":[-55.0331,47.1512]}},
{"type":"Feature","properties":{"name":"Marystown","region":"Burin-Hub"},"geometry":{"type":"Point","coordinates":[-55.1581,47.1692]}},
{"type":"Feature","properties":{"name":"Mooring Cove","region":"Burin-Hub"},"geometry":{"type":"Point","coordinates":[-55.1331,47.1831]}},
{"type":"Feature","properties":{"name":"Creston North","region":"Burin-Hub"},"geometry":{"type":"Point","coordinates":[-55.1662,47.1331]}},
{"type":"Feature","properties":{"name":"Burin","region":"Burin-Hub"},"geometry":{"type":"Point","coordinates":[-55.1661,47.0331]}},
{"type":"Feature","properties":{"name":"Epworth-Great Salmonier","region":"Burin-Hub"},"geometry":{"type":"Point","coordinates":[-55.2662,47.0512]}},
{"type":"Feature","properties":{"name":"Lewin's Cove","region":"Burin-Hub"},"geometry":{"type":"Point","coordinates":[-55.1831,47.1012]}},
{"type":"Feature","properties":{"name":"St. Lawrence","region":"Burin-South"},"geometry":{"type":"Point","coordinates":[-55.3831,46.9172]}},
{"type":"Feature","properties":{"name":"Little St. Lawrence","region":"Burin-South"},"geometry":{"type":"Point","coordinates":[-55.3662,46.9331]}},
{"type":"Feature","properties":{"name":"Lawn","region":"Burin-South"},"geometry":{"type":"Point","coordinates":[-55.5331,46.9171]}},
{"type":"Feature","properties":{"name":"Lord's Cove","region":"Burin-South"},"geometry":{"type":"Point","coordinates":[-55.6662,46.8661]}},
{"type":"Feature","properties":{"name":"Lamaline","region":"Burin-South"},"geometry":{"type":"Point","coordinates":[-55.8001,46.8672]}},
{"type":"Feature","properties":{"name":"Point May","region":"Burin-South"},"geometry":{"type":"Point","coordinates":[-55.9162,46.8831]}},
{"type":"Feature","properties":{"name":"Point au Gaul","region":"Burin-South"},"geometry":{"type":"Point","coordinates":[-55.7831,46.8512]}},
{"type":"Feature","properties":{"name":"Fortune","region":"Burin-West"},"geometry":{"type":"Point","coordinates":[-55.8291,47.0722]}},
{"type":"Feature","properties":{"name":"Grand Bank","region":"Burin-West"},"geometry":{"type":"Point","coordinates":[-55.7531,47.0982]}},
{"type":"Feature","properties":{"name":"Garnish","region":"Burin-West"},"geometry":{"type":"Point","coordinates":[-55.3661,47.2331]}},
{"type":"Feature","properties":{"name":"Frenchman's Cove","region":"Burin-West"},"geometry":{"type":"Point","coordinates":[-55.4162,47.2012]}},
{"type":"Feature","properties":{"name":"Winterland","region":"Burin-West"},"geometry":{"type":"Point","coordinates":[-55.3331,47.1512]}}
 {"type":"Feature","properties":{"name":"Clarenville","region":"East"},"geometry":{"type":"Point","coordinates":[-53.9551,48.1652]}},
{"type":"Feature","properties":{"name":"Milton","region":"East"},"geometry":{"type":"Point","coordinates":[-53.9402,48.1901]}},
{"type":"Feature","properties":{"name":"George's Brook","region":"East"},"geometry":{"type":"Point","coordinates":[-53.9332,48.2171]}},
{"type":"Feature","properties":{"name":"Harcourt","region":"Random Island"},"geometry":{"type":"Point","coordinates":[-53.8831,48.2502]}},
{"type":"Feature","properties":{"name":"Monroe","region":"Random Island"},"geometry":{"type":"Point","coordinates":[-53.8172,48.2831]}},
{"type":"Feature","properties":{"name":"Burgoyne's Cove","region":"Random Island"},"geometry":{"type":"Point","coordinates":[-53.7501,48.2332]}},
{"type":"Feature","properties":{"name":"Petley","region":"Random Island"},"geometry":{"type":"Point","coordinates":[-53.7832,48.1831]}},
{"type":"Feature","properties":{"name":"Britannia","region":"Random Island"},"geometry":{"type":"Point","coordinates":[-53.7671,48.1332]}},
{"type":"Feature","properties":{"name":"Lower Lance Cove","region":"Random Island"},"geometry":{"type":"Point","coordinates":[-53.7172,48.1501]}},
{"type":"Feature","properties":{"name":"Lady Cove","region":"Random Island"},"geometry":{"type":"Point","coordinates":[-53.8171,48.1172]}},
{"type":"Feature","properties":{"name":"Elliott's Cove","region":"Random Island"},"geometry":{"type":"Point","coordinates":[-53.8652,48.1551]}},
{"type":"Feature","properties":{"name":"Bonavista","region":"Bonavista Peninsula"},"geometry":{"type":"Point","coordinates":[-53.1142,48.6491]}},
{"type":"Feature","properties":{"name":"Elliston","region":"Bonavista Peninsula"},"geometry":{"type":"Point","coordinates":[-53.0331,48.6332]}},
{"type":"Feature","properties":{"name":"Maberly","region":"Bonavista Peninsula"},"geometry":{"type":"Point","coordinates":[-53.0162,48.6511]}},
{"type":"Feature","properties":{"name":"Catalina","region":"Bonavista Peninsula"},"geometry":{"type":"Point","coordinates":[-53.0781,48.5132]}},
{"type":"Feature","properties":{"name":"Port Union","region":"Bonavista Peninsula"},"geometry":{"type":"Point","coordinates":[-53.0852,48.4981]}},
{"type":"Feature","properties":{"name":"Little Catalina","region":"Bonavista Peninsula"},"geometry":{"type":"Point","coordinates":[-53.0661,48.5332]}},
{"type":"Feature","properties":{"name":"Melrose","region":"Bonavista Peninsula"},"geometry":{"type":"Point","coordinates":[-53.0662,48.4831]}},
{"type":"Feature","properties":{"name":"Port Rexton","region":"Bonavista Peninsula"},"geometry":{"type":"Point","coordinates":[-53.3332,48.3831]}},
{"type":"Feature","properties":{"name":"Trinity","region":"Bonavista Peninsula"},"geometry":{"type":"Point","coordinates":[-53.3671,48.3672]}},
{"type":"Feature","properties":{"name":"Champney's West","region":"Bonavista Peninsula"},"geometry":{"type":"Point","coordinates":[-53.3012,48.3831]}},
{"type":"Feature","properties":{"name":"English Harbour","region":"Bonavista Peninsula"},"geometry":{"type":"Point","coordinates":[-53.2661,48.3662]}},
{"type":"Feature","properties":{"name":"King's Cove","region":"Bonavista Peninsula"},"geometry":{"type":"Point","coordinates":[-53.3341,48.5732]}},
{"type":"Feature","properties":{"name":"Keels","region":"Bonavista Peninsula"},"geometry":{"type":"Point","coordinates":[-53.4012,48.5831]}},
{"type":"Feature","properties":{"name":"Tickle Cove","region":"Bonavista Peninsula"},"geometry":{"type":"Point","coordinates":[-53.4661,48.5832]}},
{"type":"Feature","properties":{"name":"Open Hall","region":"Bonavista Peninsula"},"geometry":{"type":"Point","coordinates":[-53.5331,48.5162]}},
{"type":"Feature","properties":{"name":"Plate Cove West","region":"Bonavista Peninsula"},"geometry":{"type":"Point","coordinates":[-53.6332,48.4511]}},
{"type":"Feature","properties":{"name":"Princeton","region":"Bonavista Peninsula"},"geometry":{"type":"Point","coordinates":[-53.5661,48.3512]}},
{"type":"Feature","properties":{"name":"Musgravetown","region":"Bonavista Peninsula"},"geometry":{"type":"Point","coordinates":[-53.9332,48.4011]}},
{"type":"Feature","properties":{"name":"Lethbridge","region":"Bonavista Peninsula"},"geometry":{"type":"Point","coordinates":[-53.8661,48.3662]}}
    {"type":"Feature","properties":{"name":"Gander","region":"Central-Hub"},"geometry":{"type":"Point","coordinates":[-54.6122,48.9551]}},
{"type":"Feature","properties":{"name":"Grand Falls-Windsor","region":"Central-Hub"},"geometry":{"type":"Point","coordinates":[-55.6622,48.9331]}},
{"type":"Feature","properties":{"name":"Bishop's Falls","region":"Central-Hub"},"geometry":{"type":"Point","coordinates":[-55.4831,49.0162]}},
{"type":"Feature","properties":{"name":"Glovertown","region":"Central-East"},"geometry":{"type":"Point","coordinates":[-54.0331,48.6662]}},
{"type":"Feature","properties":{"name":"Gambo","region":"Central-East"},"geometry":{"type":"Point","coordinates":[-54.2162,48.7831]}},
{"type":"Feature","properties":{"name":"Hare Bay","region":"Central-East"},"geometry":{"type":"Point","coordinates":[-54.0162,48.8501]}},
{"type":"Feature","properties":{"name":"New-Wes-Valley","region":"Bonavista North"},"geometry":{"type":"Point","coordinates":[-53.5831,49.1662]}},
{"type":"Feature","properties":{"name":"Lumsden","region":"Bonavista North"},"geometry":{"type":"Point","coordinates":[-53.5832,49.2952]}},
{"type":"Feature","properties":{"name":"Musgrave Harbour","region":"Bonavista North"},"geometry":{"type":"Point","coordinates":[-54.0661,49.4512]}},
{"type":"Feature","properties":{"name":"Lewisporte","region":"Notre Dame Bay"},"geometry":{"type":"Point","coordinates":[-55.0502,49.2451]}},
{"type":"Feature","properties":{"name":"Botwood","region":"Notre Dame Bay"},"geometry":{"type":"Point","coordinates":[-55.3452,49.1451]}},
{"type":"Feature","properties":{"name":"Point Leamington","region":"Notre Dame Bay"},"geometry":{"type":"Point","coordinates":[-55.3831,49.3512]}},
{"type":"Feature","properties":{"name":"Leading Tickles","region":"Notre Dame Bay"},"geometry":{"type":"Point","coordinates":[-55.4332,49.4831]}},
{"type":"Feature","properties":{"name":"Milltown-Head of Bay d'Espoir","region":"Coast of Bays"},"geometry":{"type":"Point","coordinates":[-55.7661,47.9662]}},
{"type":"Feature","properties":{"name":"St. Alban's","region":"Coast of Bays"},"geometry":{"type":"Point","coordinates":[-55.8332,47.8661]}},
{"type":"Feature","properties":{"name":"Morrisville","region":"Coast of Bays"},"geometry":{"type":"Point","coordinates":[-55.7662,47.9172]}},
{"type":"Feature","properties":{"name":"Conne River","region":"Coast of Bays"},"geometry":{"type":"Point","coordinates":[-55.7001,47.8331]}},
{"type":"Feature","properties":{"name":"Hermitage","region":"Coast of Bays"},"geometry":{"type":"Point","coordinates":[-55.9331,47.5512]}},
{"type":"Feature","properties":{"name":"Seal Cove (FB)","region":"Coast of Bays"},"geometry":{"type":"Point","coordinates":[-56.0332,47.5661]}},
{"type":"Feature","properties":{"name":"Harbour Breton","region":"Coast of Bays"},"geometry":{"type":"Point","coordinates":[-55.8161,47.4832]}},
    {"type":"Feature","properties":{"name":"Baie Verte","region":"Baie Verte Peninsula"},"geometry":{"type":"Point","coordinates":[-56.1831,49.9332]}},
{"type":"Feature","properties":{"name":"La Scie","region":"Baie Verte Peninsula"},"geometry":{"type":"Point","coordinates":[-55.5832,49.9511]}},
{"type":"Feature","properties":{"name":"Fleur de Lys","region":"Baie Verte Peninsula"},"geometry":{"type":"Point","coordinates":[-56.1162,50.1161]}},
{"type":"Feature","properties":{"name":"Coachman's Cove","region":"Baie Verte Peninsula"},"geometry":{"type":"Point","coordinates":[-56.1831,50.0512]}},
{"type":"Feature","properties":{"name":"Pacquet","region":"Baie Verte Peninsula"},"geometry":{"type":"Point","coordinates":[-55.8661,49.9831]}},
{"type":"Feature","properties":{"name":"Brent's Cove","region":"Baie Verte Peninsula"},"geometry":{"type":"Point","coordinates":[-55.7832,49.9512]}},
{"type":"Feature","properties":{"name":"Seal Cove (WB)","region":"Baie Verte Peninsula"},"geometry":{"type":"Point","coordinates":[-56.3831,49.9331]}},
{"type":"Feature","properties":{"name":"Westport","region":"Baie Verte Peninsula"},"geometry":{"type":"Point","coordinates":[-56.6332,49.7831]}},
{"type":"Feature","properties":{"name":"Springdale","region":"Green Bay"},"geometry":{"type":"Point","coordinates":[-56.0661,49.5012]}},
{"type":"Feature","properties":{"name":"South Brook","region":"Green Bay"},"geometry":{"type":"Point","coordinates":[-56.0832,49.4331]}},
{"type":"Feature","properties":{"name":"Robert's Arm","region":"Green Bay"},"geometry":{"type":"Point","coordinates":[-55.8011,49.4832]}},
{"type":"Feature","properties":{"name":"Triton","region":"Green Bay"},"geometry":{"type":"Point","coordinates":[-55.6162,49.5161]}},
{"type":"Feature","properties":{"name":"Pilley's Island","region":"Green Bay"},"geometry":{"type":"Point","coordinates":[-55.7161,49.5011]}},
{"type":"Feature","properties":{"name":"King's Point","region":"Green Bay"},"geometry":{"type":"Point","coordinates":[-56.1662,49.5831]}},
{"type":"Feature","properties":{"name":"Harry's Harbour","region":"Green Bay"},"geometry":{"type":"Point","coordinates":[-55.9161,49.7012]}},
{"type":"Feature","properties":{"name":"Fogo","region":"Islands"},"geometry":{"type":"Point","coordinates":[-54.2662,49.7161]}},
{"type":"Feature","properties":{"name":"Joe Batt's Arm","region":"Islands"},"geometry":{"type":"Point","coordinates":[-54.1511,49.7162]}},
{"type":"Feature","properties":{"name":"Seldom","region":"Islands"},"geometry":{"type":"Point","coordinates":[-54.1832,49.6111]}},
{"type":"Feature","properties":{"name":"Tilting","region":"Islands"},"geometry":{"type":"Point","coordinates":[-54.0831,49.7011]}},
{"type":"Feature","properties":{"name":"Change Islands","region":"Islands"},"geometry":{"type":"Point","coordinates":[-54.4011,49.6662]}},
{"type":"Feature","properties":{"name":"Summerford","region":"Road to the Isles"},"geometry":{"type":"Point","coordinates":[-54.6462,49.4951]}},
{"type":"Feature","properties":{"name":"Cottlesville","region":"Road to the Isles"},"geometry":{"type":"Point","coordinates":[-54.6672,49.5332]}},
{"type":"Feature","properties":{"name":"Virgin Arm","region":"Road to the Isles"},"geometry":{"type":"Point","coordinates":[-54.5831,49.5511]}},
{"type":"Feature","properties":{"name":"Moreton's Harbour","region":"Road to the Isles"},"geometry":{"type":"Point","coordinates":[-54.6172,49.5831]}},
{"type":"Feature","properties":{"name":"Twillingate","region":"Road to the Isles"},"geometry":{"type":"Point","coordinates":[-54.7641,49.6482]}},
{"type":"Feature","properties":{"name":"Crow Head","region":"Road to the Isles"},"geometry":{"type":"Point","coordinates":[-54.7832,49.6671]}},
{"type":"Feature","properties":{"name":"Durrell","region":"Road to the Isles"},"geometry":{"type":"Point","coordinates":[-54.7331,49.6502]}},
    {"type":"Feature","properties":{"name":"Corner Brook","region":"West-Hub"},"geometry":{"type":"Point","coordinates":[-57.9421,48.9482]}},
{"type":"Feature","properties":{"name":"Massey Drive","region":"West-Hub"},"geometry":{"type":"Point","coordinates":[-57.9122,48.9281]}},
{"type":"Feature","properties":{"name":"Mount Moriah","region":"Bay of Islands"},"geometry":{"type":"Point","coordinates":[-58.0162,48.9661]}},
{"type":"Feature","properties":{"name":"Benoit's Cove","region":"Bay of Islands"},"geometry":{"type":"Point","coordinates":[-58.1012,49.0111]}},
{"type":"Feature","properties":{"name":"Lark Harbour","region":"Bay of Islands"},"geometry":{"type":"Point","coordinates":[-58.3752,49.0971]}},
{"type":"Feature","properties":{"name":"York Harbour","region":"Bay of Islands"},"geometry":{"type":"Point","coordinates":[-58.3731,49.0452]}},
{"type":"Feature","properties":{"name":"Cox's Cove","region":"Bay of Islands"},"geometry":{"type":"Point","coordinates":[-58.0672,49.1171]}},
{"type":"Feature","properties":{"name":"McIvers","region":"Bay of Islands"},"geometry":{"type":"Point","coordinates":[-58.1001,49.0832]}},
{"type":"Feature","properties":{"name":"Pasadena","region":"Humber Valley"},"geometry":{"type":"Point","coordinates":[-57.6032,49.0141]}},
{"type":"Feature","properties":{"name":"Deer Lake","region":"Humber Valley"},"geometry":{"type":"Point","coordinates":[-57.4331,49.1722]}},
{"type":"Feature","properties":{"name":"Cormack","region":"Humber Valley"},"geometry":{"type":"Point","coordinates":[-57.4012,49.2951]}},
{"type":"Feature","properties":{"name":"Stephenville","region":"Bay St. George"},"geometry":{"type":"Point","coordinates":[-58.5712,48.5521]}},
{"type":"Feature","properties":{"name":"Stephenville Crossing","region":"Bay St. George"},"geometry":{"type":"Point","coordinates":[-58.4331,48.5012]}},
{"type":"Feature","properties":{"name":"Kippens","region":"Bay St. George"},"geometry":{"type":"Point","coordinates":[-58.6012,48.5661]}},
{"type":"Feature","properties":{"name":"Cape St. George","region":"Port au Port"},"geometry":{"type":"Point","coordinates":[-59.2501,48.4672]}},
{"type":"Feature","properties":{"name":"Lourdes","region":"Port au Port"},"geometry":{"type":"Point","coordinates":[-58.9832,48.6501]}},
{"type":"Feature","properties":{"name":"Port au Port West","region":"Port au Port"},"geometry":{"type":"Point","coordinates":[-58.7511,48.5662]}},
{"type":"Feature","properties":{"name":"Piccadilly","region":"Port au Port"},"geometry":{"type":"Point","coordinates":[-58.9012,48.5161]}},
{"type":"Feature","properties":{"name":"St. George's","region":"Bay St. George"},"geometry":{"type":"Point","coordinates":[-58.4831,48.4332]}},
{"type":"Feature","properties":{"name":"Barachois Brook","region":"Bay St. George"},"geometry":{"type":"Point","coordinates":[-58.4512,48.4011]}},
{"type":"Feature","properties":{"name":"St. Fintan's","region":"Bay St. George South"},"geometry":{"type":"Point","coordinates":[-58.8511,48.2012]}},
{"type":"Feature","properties":{"name":"Codroy","region":"Codroy Valley"},"geometry":{"type":"Point","coordinates":[-59.3332,47.8831]}},
{"type":"Feature","properties":{"name":"Doyles","region":"Codroy Valley"},"geometry":{"type":"Point","coordinates":[-59.1831,47.8332]}},
{"type":"Feature","properties":{"name":"Upper Ferry","region":"Codroy Valley"},"geometry":{"type":"Point","coordinates":[-59.2832,47.8331]}},
{"type":"Feature","properties":{"name":"Port aux Basques","region":"Southwest-Hub"},"geometry":{"type":"Point","coordinates":[-59.1352,47.5711]}},
{"type":"Feature","properties":{"name":"Isle aux Morts","region":"Southwest Coast"},"geometry":{"type":"Point","coordinates":[-58.9831,47.5832]}},
{"type":"Feature","properties":{"name":"Burnt Islands","region":"Southwest Coast"},"geometry":{"type":"Point","coordinates":[-58.8512,47.5831]}},
{"type":"Feature","properties":{"name":"Rose Blanche-Harbour Le Cou","region":"Southwest Coast"},"geometry":{"type":"Point","coordinates":[-58.2831,47.6162]}},
{"type":"Feature","properties":{"name":"Burgeo","region":"Southwest Coast-Isolated"},"geometry":{"type":"Point","coordinates":[-57.6162,47.6111]}},
{"type":"Feature","properties":{"name":"Ramea","region":"Southwest Coast-Isolated"},"geometry":{"type":"Point","coordinates":[-57.3831,47.5162]}},
   {"type":"Feature","properties":{"name":"Rocky Harbour","region":"Gros Morne"},"geometry":{"type":"Point","coordinates":[-57.9162,49.5912]}},
{"type":"Feature","properties":{"name":"Norris Point","region":"Gros Morne"},"geometry":{"type":"Point","coordinates":[-57.9011,49.5162]}},
{"type":"Feature","properties":{"name":"Trout River","region":"Gros Morne"},"geometry":{"type":"Point","coordinates":[-58.1332,49.4831]}},
{"type":"Feature","properties":{"name":"Woody Point","region":"Gros Morne"},"geometry":{"type":"Point","coordinates":[-57.9161,49.4832]}},
{"type":"Feature","properties":{"name":"Cow Head","region":"GNP-South"},"geometry":{"type":"Point","coordinates":[-57.7831,49.9162]}},
{"type":"Feature","properties":{"name":"Daniel's Harbour","region":"GNP-South"},"geometry":{"type":"Point","coordinates":[-57.5832,50.2331]}},
{"type":"Feature","properties":{"name":"Port au Choix","region":"GNP-Central"},"geometry":{"type":"Point","coordinates":[-57.3661,50.7012]}},
{"type":"Feature","properties":{"name":"Port Saunders","region":"GNP-Central"},"geometry":{"type":"Point","coordinates":[-57.2832,50.6501]}},
{"type":"Feature","properties":{"name":"River of Ponds","region":"GNP-Central"},"geometry":{"type":"Point","coordinates":[-57.3831,50.5332]}},
{"type":"Feature","properties":{"name":"Hawke's Bay","region":"GNP-Central"},"geometry":{"type":"Point","coordinates":[-57.1662,50.6111]}},
{"type":"Feature","properties":{"name":"St. Barbe","region":"GNP-North"},"geometry":{"type":"Point","coordinates":[-56.7661,51.2012]}},
{"type":"Feature","properties":{"name":"Flower's Cove","region":"GNP-North"},"geometry":{"type":"Point","coordinates":[-56.7331,51.3012]}},
{"type":"Feature","properties":{"name":"Anchor Point","region":"GNP-North"},"geometry":{"type":"Point","coordinates":[-56.8001,51.2331]}},
{"type":"Feature","properties":{"name":"Bird Cove","region":"GNP-North"},"geometry":{"type":"Point","coordinates":[-57.1162,51.0161]}},
{"type":"Feature","properties":{"name":"Main Brook","region":"GNP-East"},"geometry":{"type":"Point","coordinates":[-56.0162,51.1831]}},
{"type":"Feature","properties":{"name":"Conche","region":"GNP-East"},"geometry":{"type":"Point","coordinates":[-55.9001,50.8832]}},
{"type":"Feature","properties":{"name":"Roddickton-Bide Arm","region":"GNP-East"},"geometry":{"type":"Point","coordinates":[-56.1331,50.8661]}},
{"type":"Feature","properties":{"name":"Englee","region":"GNP-East"},"geometry":{"type":"Point","coordinates":[-56.1162,50.7162]}},
{"type":"Feature","properties":{"name":"St. Anthony","region":"GNP-Hub"},"geometry":{"type":"Point","coordinates":[-55.5991,51.3622]}},
{"type":"Feature","properties":{"name":"St. Lunaire-Griquet","region":"GNP-Hub"},"geometry":{"type":"Point","coordinates":[-55.4831,51.4832]}},
{"type":"Feature","properties":{"name":"Raleigh","region":"GNP-Hub"},"geometry":{"type":"Point","coordinates":[-55.7332,51.5511]}},
{"type":"Feature","properties":{"name":"Cook's Harbour","region":"GNP-Hub"},"geometry":{"type":"Point","coordinates":[-55.8501,51.6162]}},
{"type":"Feature","properties":{"name":"L'Anse aux Meadows","region":"GNP-Hub"},"geometry":{"type":"Point","coordinates":[-55.5331,51.5952]}},
{"type":"Feature","properties":{"name":"Belleoram","region":"Coast of Bays"},"geometry":{"type":"Point","coordinates":[-55.4162,47.5161]}},
{"type":"Feature","properties":{"name":"St. Jacques","region":"Coast of Bays"},"geometry":{"type":"Point","coordinates":[-55.4111,47.4832]}},
{"type":"Feature","properties":{"name":"English Harbour West","region":"Coast of Bays"},"geometry":{"type":"Point","coordinates":[-55.5162,47.4501]}},
{"type":"Feature","properties":{"name":"Mose Ambrose","region":"Coast of Bays"},"geometry":{"type":"Point","coordinates":[-55.5661,47.4662]}},
{"type":"Feature","properties":{"name":"Boxey","region":"Coast of Bays"},"geometry":{"type":"Point","coordinates":[-55.5832,47.4331]}},
{"type":"Feature","properties":{"name":"Coomb's Cove","region":"Coast of Bays"},"geometry":{"type":"Point","coordinates":[-55.6162,47.3831]}},
{"type":"Feature","properties":{"name":"Pool's Cove","region":"Coast of Bays"},"geometry":{"type":"Point","coordinates":[-55.4331,47.6832]}},
{"type":"Feature","properties":{"name":"Grey River","region":"Southwest-Isolated"},"geometry":{"type":"Point","coordinates":[-57.1162,47.5831]}},
{"type":"Feature","properties":{"name":"Fran√ßois","region":"Southwest-Isolated"},"geometry":{"type":"Point","coordinates":[-56.7501,47.5832]}},
{"type":"Feature","properties":{"name":"McCallum","region":"Southwest-Isolated"},"geometry":{"type":"Point","coordinates":[-56.2331,47.6331]}},
{"type":"Feature","properties":{"name":"Margaree","region":"Southwest-Coast"},"geometry":{"type":"Point","coordinates":[-59.0662,47.6001]}},
{"type":"Feature","properties":{"name":"Fox Roost","region":"Southwest-Coast"},"geometry":{"type":"Point","coordinates":[-59.0331,47.6162]}},
{"type":"Feature","properties":{"name":"Petites","region":"Southwest-Coast"},"geometry":{"type":"Point","coordinates":[-58.6162,47.6161]}},
{"type":"Feature","properties":{"name":"Grand Bruit","region":"Southwest-Coast"},"geometry":{"type":"Point","coordinates":[-58.2161,47.6662]}}
  ]
}
