{
  "type": "FeatureCollection",
  "features": [
{"type":"Feature","properties":{"name":"St. John's","region":"Avalon"},"geometry":{"type":"Point","coordinates":[-52.7126,47.5615]}},
{"type":"Feature","properties":{"name":"Mount Pearl","region":"Avalon"},"geometry":{"type":"Point","coordinates":[-52.7811,47.5181]}},
{"type":"Feature","properties":{"name":"Paradise","region":"Avalon"},"geometry":{"type":"Point","coordinates":[-52.8942,47.5338]}},
{"type":"Feature","properties":{"name":"Conception Bay South","region":"Avalon"},"geometry":{"type":"Point","coordinates":[-52.9862,47.5061]}},
{"type":"Feature","properties":{"name":"Torbay","region":"Avalon"},"geometry":{"type":"Point","coordinates":[-52.7315,47.6592]}},
{"type":"Feature","properties":{"name":"Pouch Cove","region":"Avalon"},"geometry":{"type":"Point","coordinates":[-52.7661,47.7712]}},
{"type":"Feature","properties":{"name":"Flatrock","region":"Avalon"},"geometry":{"type":"Point","coordinates":[-52.7112,47.7015]}},
{"type":"Feature","properties":{"name":"Bauline","region":"Avalon"},"geometry":{"type":"Point","coordinates":[-52.8162,47.6914]}},
{"type":"Feature","properties":{"name":"Portugal Cove-St. Philip's","region":"Avalon"},"geometry":{"type":"Point","coordinates":[-52.8582,47.6331]}},
{"type":"Feature","properties":{"name":"Logy Bay-Middle Cove-Outer Cove","region":"Avalon"},"geometry":{"type":"Point","coordinates":[-52.6662,47.6161]}},
{"type":"Feature","properties":{"name":"Petty Harbour-Maddox Cove","region":"Avalon"},"geometry":{"type":"Point","coordinates":[-52.7081,47.4612]}},
{"type":"Feature","properties":{"name":"Bay Bulls","region":"Irish Loop"},"geometry":{"type":"Point","coordinates":[-52.8125,47.3174]}},
{"type":"Feature","properties":{"name":"Witless Bay","region":"Irish Loop"},"geometry":{"type":"Point","coordinates":[-52.8172,47.2831]}},
{"type":"Feature","properties":{"name":"Mobile","region":"Irish Loop"},"geometry":{"type":"Point","coordinates":[-52.8331,47.2514]}},
{"type":"Feature","properties":{"name":"Tors Cove","region":"Irish Loop"},"geometry":{"type":"Point","coordinates":[-52.8502,47.2161]}},
{"type":"Feature","properties":{"name":"La Manche","region":"Irish Loop"},"geometry":{"type":"Point","coordinates":[-52.8831,47.1662]}},
{"type":"Feature","properties":{"name":"Briguds South","region":"Irish Loop"},"geometry":{"type":"Point","coordinates":[-52.8832,47.1161]}},
{"type":"Feature","properties":{"name":"Admiral's Cove","region":"Irish Loop"},"geometry":{"type":"Point","coordinates":[-52.9011,47.0831]}},
{"type":"Feature","properties":{"name":"Cape Broyle","region":"Irish Loop"},"geometry":{"type":"Point","coordinates":[-52.9331,47.0832]}},
{"type":"Feature","properties":{"name":"Calvert","region":"Irish Loop"},"geometry":{"type":"Point","coordinates":[-52.9161,47.0512]}},
{"type":"Feature","properties":{"name":"Ferryland","region":"Irish Loop"},"geometry":{"type":"Point","coordinates":[-52.8851,47.0224]}},
{"type":"Feature","properties":{"name":"Aquaforte","region":"Irish Loop"},"geometry":{"type":"Point","coordinates":[-52.9662,47.0014]}},
{"type":"Feature","properties":{"name":"Fermeuse","region":"Irish Loop"},"geometry":{"type":"Point","coordinates":[-52.9512,46.9662]}},
{"type":"Feature","properties":{"name":"Kingman's Cove","region":"Irish Loop"},"geometry":{"type":"Point","coordinates":[-52.9411,46.9582]}},
{"type":"Feature","properties":{"name":"Renews","region":"Irish Loop"},"geometry":{"type":"Point","coordinates":[-52.9421,46.9271]}},
{"type":"Feature","properties":{"name":"Cappahayden","region":"Irish Loop"},"geometry":{"type":"Point","coordinates":[-52.9551,46.8402]}},
{"type":"Feature","properties":{"name":"Trepassey","region":"Irish Loop"},"geometry":{"type":"Point","coordinates":[-53.3652,46.7371]}},
{"type":"Feature","properties":{"name":"Biscay Bay","region":"Irish Loop"},"geometry":{"type":"Point","coordinates":[-53.2831,46.7662]}},
{"type":"Feature","properties":{"name":"Portugal Cove South","region":"Irish Loop"},"geometry":{"type":"Point","coordinates":[-53.2512,46.7011]}},
{"type":"Feature","properties":{"name":"St. Shotts","region":"Irish Loop"},"geometry":{"type":"Point","coordinates":[-53.5831,46.6332]}},
{"type":"Feature","properties":{"name":"St. Vincent's","region":"Irish Loop"},"geometry":{"type":"Point","coordinates":[-53.6502,46.7834]}},
{"type":"Feature","properties":{"name":"St. Stephen's","region":"Irish Loop"},"geometry":{"type":"Point","coordinates":[-53.6331,46.7512]}},
{"type":"Feature","properties":{"name":"Peter's River","region":"Irish Loop"},"geometry":{"type":"Point","coordinates":[-53.6162,46.7331]}},
{"type":"Feature","properties":{"name":"Gaskiers","region":"Irish Loop"},"geometry":{"type":"Point","coordinates":[-53.5832,46.8512]}},
{"type":"Feature","properties":{"name":"St. Mary's","region":"Irish Loop"},"geometry":{"type":"Point","coordinates":[-53.5831,46.9172]}},
{"type":"Feature","properties":{"name":"Riverhead","region":"Irish Loop"},"geometry":{"type":"Point","coordinates":[-53.5162,46.9661]}},
{"type":"Feature","properties":{"name":"Mall Bay","region":"Irish Loop"},"geometry":{"type":"Point","coordinates":[-53.5662,46.9831]}},
{"type":"Feature","properties":{"name":"Mount Carmel","region":"St. Mary's Bay"},"geometry":{"type":"Point","coordinates":[-53.5011,47.1331]}},
{"type":"Feature","properties":{"name":"St. Joseph's","region":"St. Mary's Bay"},"geometry":{"type":"Point","coordinates":[-53.5012,47.1162]}},
{"type":"Feature","properties":{"name":"Admiral's Beach","region":"St. Mary's Bay"},"geometry":{"type":"Point","coordinates":[-53.6511,47.0011]}},
{"type":"Feature","properties":{"name":"St. Bride's","region":"Cape Shore"},"geometry":{"type":"Point","coordinates":[-54.1751,46.9272]}},
{"type":"Feature","properties":{"name":"Cuslett","region":"Cape Shore"},"geometry":{"type":"Point","coordinates":[-54.1512,46.9662]}},
{"type":"Feature","properties":{"name":"St. Vincent's","region":"Cape Shore"},"geometry":{"type":"Point","coordinates":[-53.6502,46.7834]}},
{"type":"Feature","properties":{"name":"Point Lance","region":"Cape Shore"},"geometry":{"type":"Point","coordinates":[-54.0831,46.8162]}},
{"type":"Feature","properties":{"name":"Branch","region":"Cape Shore"},"geometry":{"type":"Point","coordinates":[-53.9511,46.8832]}},
{"type":"Feature","properties":{"name":"Placentia","region":"Avalon West"},"geometry":{"type":"Point","coordinates":[-53.9612,47.2391]}},
{"type":"Feature","properties":{"name":"Holyrood","region":"Conception Bay"},"geometry":{"type":"Point","coordinates":[-53.1251,47.3872]}},
{"type":"Feature","properties":{"name":"Harbour Main","region":"Conception Bay"},"geometry":{"type":"Point","coordinates":[-53.1552,47.4331]}},
{"type":"Feature","properties":{"name":"Avondale","region":"Conception Bay"},"geometry":{"type":"Point","coordinates":[-53.1892,47.4222]}},
{"type":"Feature","properties":{"name":"Conception Harbour","region":"Conception Bay"},"geometry":{"type":"Point","coordinates":[-53.2161,47.4334]}},
{"type":"Feature","properties":{"name":"Colliers","region":"Conception Bay"},"geometry":{"type":"Point","coordinates":[-53.2162,47.4661]}},
{"type":"Feature","properties":{"name":"Brigus","region":"Baccalieu Trail"},"geometry":{"type":"Point","coordinates":[-53.2872,47.5361]}},
{"type":"Feature","properties":{"name":"Cupids","region":"Baccalieu Trail"},"geometry":{"type":"Point","coordinates":[-53.2321,47.5452]}},
{"type":"Feature","properties":{"name":"South River","region":"Baccalieu Trail"},"geometry":{"type":"Point","coordinates":[-53.2662,47.5512]}},
{"type":"Feature","properties":{"name":"Clarke's Beach","region":"Baccalieu Trail"},"geometry":{"type":"Point","coordinates":[-53.2831,47.5514]}},
{"type":"Feature","properties":{"name":"Port de Grave","region":"Baccalieu Trail"},"geometry":{"type":"Point","coordinates":[-53.1952,47.5831]}},
{"type":"Feature","properties":{"name":"Bay Roberts","region":"Baccalieu Trail"},"geometry":{"type":"Point","coordinates":[-53.2642,47.5951]}},
{"type":"Feature","properties":{"name":"Spaniard's Bay","region":"Baccalieu Trail"},"geometry":{"type":"Point","coordinates":[-53.2832,47.6162]}},
{"type":"Feature","properties":{"name":"Tilton","region":"Baccalieu Trail"},"geometry":{"type":"Point","coordinates":[-53.3331,47.6331]}},
{"type":"Feature","properties":{"name":"Upper Island Cove","region":"Baccalieu Trail"},"geometry":{"type":"Point","coordinates":[-53.2161,47.6512]}},
{"type":"Feature","properties":{"name":"Harbour Grace","region":"Baccalieu Trail"},"geometry":{"type":"Point","coordinates":[-53.2131,47.6952]}},
{"type":"Feature","properties":{"name":"Carbonear","region":"Baccalieu Trail"},"geometry":{"type":"Point","coordinates":[-53.2291,47.7371]}},
{"type":"Feature","properties":{"name":"Victoria","region":"Baccalieu Trail"},"geometry":{"type":"Point","coordinates":[-53.2412,47.7661]}},
{"type":"Feature","properties":{"name":"Salmon Cove","region":"Baccalieu Trail"},"geometry":{"type":"Point","coordinates":[-53.1661,47.7832]}},
{"type":"Feature","properties":{"name":"Broad Cove","region":"Baccalieu Trail"},"geometry":{"type":"Point","coordinates":[-53.0831,47.8331]}},
{"type":"Feature","properties":{"name":"Western Bay","region":"Baccalieu Trail"},"geometry":{"type":"Point","coordinates":[-53.0832,47.8832]}},
{"type":"Feature","properties":{"name":"Northern Bay","region":"Baccalieu Trail"},"geometry":{"type":"Point","coordinates":[-53.0662,47.9331]}},
{"type":"Feature","properties":{"name":"Old Perlican","region":"Baccalieu Trail"},"geometry":{"type":"Point","coordinates":[-53.0112,48.0832]}},
{"type":"Feature","properties":{"name":"Bay de Verde","region":"Baccalieu Trail"},"geometry":{"type":"Point","coordinates":[-52.8831,48.1332]}},
{"type":"Feature","properties":{"name":"Grates Cove","region":"Baccalieu Trail"},"geometry":{"type":"Point","coordinates":[-52.9332,48.1661]}},
{"type":"Feature","properties":{"name":"Winterton","region":"Trinity Bay South"},"geometry":{"type":"Point","coordinates":[-53.3331,47.9662]}},
{"type":"Feature","properties":{"name":"Heart's Content","region":"Trinity Bay South"},"geometry":{"type":"Point","coordinates":[-53.3662,47.8671]}},
{"type":"Feature","properties":{"name":"Heart's Delight-Islington","region":"Trinity Bay South"},"geometry":{"type":"Point","coordinates":[-53.4661,47.7662]}},
{"type":"Feature","properties":{"name":"Green's Harbour","region":"Trinity Bay South"},"geometry":{"type":"Point","coordinates":[-53.5162,47.6331]}},
{"type":"Feature","properties":{"name":"Whiteway","region":"Trinity Bay South"},"geometry":{"type":"Point","coordinates":[-53.4831,47.6832]}},
{"type":"Feature","properties":{"name":"Dildo","region":"Trinity Bay South"},"geometry":{"type":"Point","coordinates":[-53.5512,47.5671]}},
{"type":"Feature","properties":{"name":"Whitbourne","region":"Isthmus"},"geometry":{"type":"Point","coordinates":[-53.5892,47.5142]}},
{"type":"Feature","properties":{"name":"Chapel Arm","region":"Isthmus"},"geometry":{"type":"Point","coordinates":[-53.6831,47.5161]}},
{"type":"Feature","properties":{"name":"Norman's Cove-Long Cove","region":"Isthmus"},"geometry":{"type":"Point","coordinates":[-53.6662,47.5512]}},
{"type":"Feature","properties":{"name":"Come By Chance","region":"Isthmus"},"geometry":{"type":"Point","coordinates":[-54.0162,47.8331]}},
{"type":"Feature","properties":{"name":"Arnold's Cove","region":"Isthmus"},"geometry":{"type":"Point","coordinates":[-54.0012,47.7552]}}
{"type":"Feature","properties": {"name": "Argentia", "region": "Avalon West"}, "geometry": {"type": "Point", "coordinates": [-53.9882, 47.3001]}}
  
  ]

